[{"fields": {"model": "logentry", "app_label": "admin"}, "model": "contenttypes.contenttype", "pk": 1}, {"fields": {"model": "permission", "app_label": "auth"}, "model": "contenttypes.contenttype", "pk": 2}, {"fields": {"model": "group", "app_label": "auth"}, "model": "contenttypes.contenttype", "pk": 3}, {"fields": {"model": "user", "app_label": "auth"}, "model": "contenttypes.contenttype", "pk": 4}, {"fields": {"model": "contenttype", "app_label": "contenttypes"}, "model": "contenttypes.contenttype", "pk": 5}, {"fields": {"model": "session", "app_label": "sessions"}, "model": "contenttypes.contenttype", "pk": 6}, {"fields": {"model": "owner", "app_label": "visitor"}, "model": "contenttypes.contenttype", "pk": 7}, {"fields": {"model": "restaurant", "app_label": "visitor"}, "model": "contenttypes.contenttype", "pk": 8}, {"fields": {"model": "address", "app_label": "visitor"}, "model": "contenttypes.contenttype", "pk": 9}, {"fields": {"model": "contact", "app_label": "visitor"}, "model": "contenttypes.contenttype", "pk": 10}, {"fields": {"model": "menu", "app_label": "visitor"}, "model": "contenttypes.contenttype", "pk": 11}, {"fields": {"model": "gallery", "app_label": "visitor"}, "model": "contenttypes.contenttype", "pk": 12}, {"fields": {"expire_date": "2015-07-29T09:37:17.990Z", "session_data": "MTY2YzFhYmFmNGZlYWUyMjc2NTYzYzRhM2NmNTEzNTUxZTM5MzgwZTp7Il9hdXRoX3VzZXJfYmFja2VuZCI6ImRqYW5nby5jb250cmliLmF1dGguYmFja2VuZHMuTW9kZWxCYWNrZW5kIiwiX2F1dGhfdXNlcl9pZCI6IjIiLCJfYXV0aF91c2VyX2hhc2giOiI5ZDUxMDZiNDQ2ZmI4Nzc2MWIxOTE4MTdmYmEwZDBmYjAyZmVhZjYwIn0="}, "model": "sessions.session", "pk": "i5ui0s1gkomkg27qn9wwt4d0hy5dmxvq"}, {"fields": {"address": "building", "restaurant": 1, "longitude": "0E-10", "latitude": "0E-10"}, "model": "visitor.address", "pk": 1}, {"fields": {"address": "building", "restaurant": 2, "longitude": "0E-10", "latitude": "0E-10"}, "model": "visitor.address", "pk": 2}, {"fields": {"address": "building", "restaurant": 3, "longitude": "0E-10", "latitude": "0E-10"}, "model": "visitor.address", "pk": 3}, {"fields": {"address": "building", "restaurant": 4, "longitude": "0E-10", "latitude": "0E-10"}, "model": "visitor.address", "pk": 4}, {"fields": {"address": "building", "restaurant": 5, "longitude": "0E-10", "latitude": "0E-10"}, "model": "visitor.address", "pk": 5}, {"fields": {"address": "building", "restaurant": 6, "longitude": "0E-10", "latitude": "0E-10"}, "model": "visitor.address", "pk": 6}, {"fields": {"address": "building", "restaurant": 7, "longitude": "0E-10", "latitude": "0E-10"}, "model": "visitor.address", "pk": 7}, {"fields": {"address": "building", "restaurant": 8, "longitude": "0E-10", "latitude": "0E-10"}, "model": "visitor.address", "pk": 8}, {"fields": {"address": "building", "restaurant": 9, "longitude": "0E-10", "latitude": "0E-10"}, "model": "visitor.address", "pk": 9}, {"fields": {"address": "building", "restaurant": 10, "longitude": "0E-10", "latitude": "0E-10"}, "model": "visitor.address", "pk": 10}, {"fields": {"address": "building", "restaurant": 11, "longitude": "0E-10", "latitude": "0E-10"}, "model": "visitor.address", "pk": 11}, {"fields": {"address": "building", "restaurant": 12, "longitude": "0E-10", "latitude": "0E-10"}, "model": "visitor.address", "pk": 12}, {"fields": {"address": "building", "restaurant": 13, "longitude": "0E-10", "latitude": "0E-10"}, "model": "visitor.address", "pk": 13}, {"fields": {"address": "building", "restaurant": 14, "longitude": "0E-10", "latitude": "0E-10"}, "model": "visitor.address", "pk": 14}, {"fields": {"address": "building", "restaurant": 15, "longitude": "0E-10", "latitude": "0E-10"}, "model": "visitor.address", "pk": 15}, {"fields": {"address": "building", "restaurant": 16, "longitude": "0E-10", "latitude": "0E-10"}, "model": "visitor.address", "pk": 16}, {"fields": {"address": "building", "restaurant": 17, "longitude": "0E-10", "latitude": "0E-10"}, "model": "visitor.address", "pk": 17}, {"fields": {"address": "building", "restaurant": 18, "longitude": "0E-10", "latitude": "0E-10"}, "model": "visitor.address", "pk": 18}, {"fields": {"address": "building", "restaurant": 19, "longitude": "0E-10", "latitude": "0E-10"}, "model": "visitor.address", "pk": 19}, {"fields": {"address": "building", "restaurant": 20, "longitude": "0E-10", "latitude": "0E-10"}, "model": "visitor.address", "pk": 20}, {"fields": {"address": "building", "restaurant": 21, "longitude": "0E-10", "latitude": "0E-10"}, "model": "visitor.address", "pk": 21}, {"fields": {"address": "building", "restaurant": 22, "longitude": "0E-10", "latitude": "0E-10"}, "model": "visitor.address", "pk": 22}, {"fields": {"address": "building", "restaurant": 23, "longitude": "0E-10", "latitude": "0E-10"}, "model": "visitor.address", "pk": 23}, {"fields": {"address": "building", "restaurant": 24, "longitude": "0E-10", "latitude": "0E-10"}, "model": "visitor.address", "pk": 24}, {"fields": {"address": "building", "restaurant": 25, "longitude": "0E-10", "latitude": "0E-10"}, "model": "visitor.address", "pk": 25}, {"fields": {"address": "building", "restaurant": 26, "longitude": "0E-10", "latitude": "0E-10"}, "model": "visitor.address", "pk": 26}, {"fields": {"address": "building", "restaurant": 27, "longitude": "0E-10", "latitude": "0E-10"}, "model": "visitor.address", "pk": 27}, {"fields": {"address": "building", "restaurant": 28, "longitude": "0E-10", "latitude": "0E-10"}, "model": "visitor.address", "pk": 28}, {"fields": {"address": "building", "restaurant": 29, "longitude": "0E-10", "latitude": "0E-10"}, "model": "visitor.address", "pk": 29}, {"fields": {"address": "building", "restaurant": 30, "longitude": "0E-10", "latitude": "0E-10"}, "model": "visitor.address", "pk": 30}, {"fields": {"address": "building", "restaurant": 31, "longitude": "0E-10", "latitude": "0E-10"}, "model": "visitor.address", "pk": 31}, {"fields": {"address": "building", "restaurant": 32, "longitude": "0E-10", "latitude": "0E-10"}, "model": "visitor.address", "pk": 32}, {"fields": {"address": "building", "restaurant": 33, "longitude": "0E-10", "latitude": "0E-10"}, "model": "visitor.address", "pk": 33}, {"fields": {"address": "building", "restaurant": 34, "longitude": "0E-10", "latitude": "0E-10"}, "model": "visitor.address", "pk": 34}, {"fields": {"address": "building", "restaurant": 35, "longitude": "0E-10", "latitude": "0E-10"}, "model": "visitor.address", "pk": 35}, {"fields": {"address": "building", "restaurant": 36, "longitude": "0E-10", "latitude": "0E-10"}, "model": "visitor.address", "pk": 36}, {"fields": {"address": "building", "restaurant": 37, "longitude": "0E-10", "latitude": "0E-10"}, "model": "visitor.address", "pk": 37}, {"fields": {"address": "building", "restaurant": 38, "longitude": "0E-10", "latitude": "0E-10"}, "model": "visitor.address", "pk": 38}, {"fields": {"address": "building", "restaurant": 39, "longitude": "0E-10", "latitude": "0E-10"}, "model": "visitor.address", "pk": 39}, {"fields": {"address": "building", "restaurant": 40, "longitude": "0E-10", "latitude": "0E-10"}, "model": "visitor.address", "pk": 40}, {"fields": {"address": "Str Fagarasului", "restaurant": 41, "longitude": "0E-10", "latitude": "0E-10"}, "model": "visitor.address", "pk": 41}, {"fields": {"website": "", "mail": "", "phone": " 0735 54 83 12 / 0721 30 52 61", "restaurant": 1}, "model": "visitor.contact", "pk": 1}, {"fields": {"website": "", "mail": "", "phone": " 0268 31 59 22 / ", "restaurant": 2}, "model": "visitor.contact", "pk": 2}, {"fields": {"website": "", "mail": "", "phone": " 0268 47 58 29 / ", "restaurant": 3}, "model": "visitor.contact", "pk": 3}, {"fields": {"website": "", "mail": "", "phone": " 0368 46 85 93 / 0733 81 11 74", "restaurant": 4}, "model": "visitor.contact", "pk": 4}, {"fields": {"website": "", "mail": "", "phone": " 0268 47 11 35 / 0740 31 62 72", "restaurant": 5}, "model": "visitor.contact", "pk": 5}, {"fields": {"website": "", "mail": "", "phone": " 0268 47 33 67 / 0720 44 44 22", "restaurant": 6}, "model": "visitor.contact", "pk": 6}, {"fields": {"website": "", "mail": "", "phone": " 0720 53 55 66 / ", "restaurant": 7}, "model": "visitor.contact", "pk": 7}, {"fields": {"website": "", "mail": "", "phone": " 0368 00 11 82 / 0728 02 42 02", "restaurant": 8}, "model": "visitor.contact", "pk": 8}, {"fields": {"website": "", "mail": "", "phone": " 0749 357 357 / ", "restaurant": 9}, "model": "visitor.contact", "pk": 9}, {"fields": {"website": "", "mail": "", "phone": " 0744 22 64 66 / ", "restaurant": 10}, "model": "visitor.contact", "pk": 10}, {"fields": {"website": "", "mail": "", "phone": " 0368 45 98 01 / 0725 01 77 36", "restaurant": 11}, "model": "visitor.contact", "pk": 11}, {"fields": {"website": "", "mail": "", "phone": " 0268 56 13 56 / 0744 69 54 46", "restaurant": 12}, "model": "visitor.contact", "pk": 12}, {"fields": {"website": "", "mail": "", "phone": " 0724 63 62 92 / 0756 83 62 38", "restaurant": 13}, "model": "visitor.contact", "pk": 13}, {"fields": {"website": "", "mail": "", "phone": " 0268 47 05 11 / ", "restaurant": 14}, "model": "visitor.contact", "pk": 14}, {"fields": {"website": "", "mail": "", "phone": " 0758 11 10 16 / 0757 04 22 75", "restaurant": 15}, "model": "visitor.contact", "pk": 15}, {"fields": {"website": "", "mail": "", "phone": " 0268 31 11 15 / ", "restaurant": 16}, "model": "visitor.contact", "pk": 16}, {"fields": {"website": "", "mail": "", "phone": " 0268 47 00 27 / 0736 37 68 00", "restaurant": 17}, "model": "visitor.contact", "pk": 17}, {"fields": {"website": "", "mail": "", "phone": " 0268 31 50 22 / 0733 61 66 16", "restaurant": 18}, "model": "visitor.contact", "pk": 18}, {"fields": {"website": "", "mail": "", "phone": " 0268 41 97 75 / 0723 29 49 23", "restaurant": 19}, "model": "visitor.contact", "pk": 19}, {"fields": {"website": "", "mail": "", "phone": " 0733 42 20 97 / ", "restaurant": 20}, "model": "visitor.contact", "pk": 20}, {"fields": {"website": "", "mail": "", "phone": " 0737 21 12 54 / ", "restaurant": 21}, "model": "visitor.contact", "pk": 21}, {"fields": {"website": "", "mail": "", "phone": " 0721 30 52 61 / 0735 54 83 12", "restaurant": 22}, "model": "visitor.contact", "pk": 22}, {"fields": {"website": "", "mail": "", "phone": " 0742 69 16 39 / ", "restaurant": 23}, "model": "visitor.contact", "pk": 23}, {"fields": {"website": "", "mail": "", "phone": " 0268 47 17 47 / 0268 47 42 10", "restaurant": 24}, "model": "visitor.contact", "pk": 24}, {"fields": {"website": "", "mail": "", "phone": " 0268 41 55 75 / 0735 40 41 69", "restaurant": 25}, "model": "visitor.contact", "pk": 25}, {"fields": {"website": "", "mail": "", "phone": " 0268 47 11 77 / ", "restaurant": 26}, "model": "visitor.contact", "pk": 26}, {"fields": {"website": "", "mail": "", "phone": " 0268 47 69 92 / ", "restaurant": 27}, "model": "visitor.contact", "pk": 27}, {"fields": {"website": "", "mail": "", "phone": " 0268 41 74 16 / 0746 61 43 45", "restaurant": 28}, "model": "visitor.contact", "pk": 28}, {"fields": {"website": "", "mail": "", "phone": " 0268 50 80 09 / ", "restaurant": 29}, "model": "visitor.contact", "pk": 29}, {"fields": {"website": "", "mail": "", "phone": " 0268 47 66 70 / 0723 29 79 93", "restaurant": 30}, "model": "visitor.contact", "pk": 30}, {"fields": {"website": "", "mail": "", "phone": " 0268 47 22 10 / ", "restaurant": 31}, "model": "visitor.contact", "pk": 31}, {"fields": {"website": "", "mail": "", "phone": " 0268 47 61 63 / 0766 68 17 17 / 0785 26 08 06", "restaurant": 32}, "model": "visitor.contact", "pk": 32}, {"fields": {"website": "", "mail": "", "phone": " 0268 41 91 00 / 0722 88 83 56", "restaurant": 33}, "model": "visitor.contact", "pk": 33}, {"fields": {"website": "", "mail": "", "phone": " 0368 730 136 / 0745 690 171", "restaurant": 34}, "model": "visitor.contact", "pk": 34}, {"fields": {"website": "", "mail": "", "phone": " 0733 00 76 76 / ", "restaurant": 35}, "model": "visitor.contact", "pk": 35}, {"fields": {"website": "", "mail": "", "phone": " 0268 33 67 95 / 0723 50 73 50", "restaurant": 36}, "model": "visitor.contact", "pk": 36}, {"fields": {"website": "", "mail": "", "phone": " 0268 30 14 30 / ", "restaurant": 37}, "model": "visitor.contact", "pk": 37}, {"fields": {"website": "", "mail": "", "phone": " 0741 20 34 58 / 0756 07 11 12", "restaurant": 38}, "model": "visitor.contact", "pk": 38}, {"fields": {"website": "", "mail": "", "phone": " 0268 51 38 77 / ", "restaurant": 39}, "model": "visitor.contact", "pk": 39}, {"fields": {"website": "", "mail": "", "phone": " 0268 41 49 71 / 0722 51 44 50", "restaurant": 40}, "model": "visitor.contact", "pk": 40}, {"fields": {"website": "", "mail": "", "phone": " 0722 88 60 54 / ", "restaurant": 41}, "model": "visitor.contact", "pk": 41}, {"fields": {"description": "Maricei", "date": "2015-07-16", "menu_name": "Mititei", "restaurant": 26, "price": "3.00"}, "model": "visitor.menu", "pk": 1}, {"fields": {"description": "Fara numar", "date": "2015-07-13", "menu_name": "Rabdari prajite", "restaurant": 10, "price": "10.00"}, "model": "visitor.menu", "pk": 2}, {"fields": {"description": "Calutz", "date": "2015-07-16", "menu_name": "Salam Sibiu", "restaurant": 42, "price": "12.00"}, "model": "visitor.menu", "pk": 3}, {"fields": {"description": "Frunze", "date": "2015-07-16", "menu_name": "Salata", "restaurant": 2, "price": "10.00"}, "model": "visitor.menu", "pk": 5}, {"fields": {"description": "carne si varza", "date": "2015-07-16", "menu_name": "Sarmale", "restaurant": 39, "price": "15.00"}, "model": "visitor.menu", "pk": 6}, {"fields": {"description": "picoici", "date": "2015-07-20", "menu_name": "Cartofi Prajiti", "restaurant": 41, "price": "20.00"}, "model": "visitor.menu", "pk": 7}, {"fields": {"description": "Cal", "date": "2015-07-16", "menu_name": "Salam Sibiu", "restaurant": 42, "price": "12.00"}, "model": "visitor.menu", "pk": 8}, {"fields": {"description": "Curcanu", "date": "2015-07-20", "menu_name": "Gigiucu", "restaurant": 41, "price": "10.00"}, "model": "visitor.menu", "pk": 9}, {"fields": {"picture": "images/1378499565_logo.jpg", "restaurant": 1}, "model": "visitor.gallery", "pk": 1}, {"fields": {"picture": "images/1427698330_logo-restaurant-casa-ungureasca-brasov.jpg", "restaurant": 2}, "model": "visitor.gallery", "pk": 2}, {"fields": {"picture": "images/1359054985_1.jpg", "restaurant": 3}, "model": "visitor.gallery", "pk": 3}, {"fields": {"picture": "images/1424159111_logoVinoESapori.jpg", "restaurant": 4}, "model": "visitor.gallery", "pk": 4}, {"fields": {"picture": "images/1415219245_fotoprofil_inchis.jpg", "restaurant": 5}, "model": "visitor.gallery", "pk": 5}, {"fields": {"picture": "images/1359056114_fotoprofil.jpg", "restaurant": 6}, "model": "visitor.gallery", "pk": 6}, {"fields": {"picture": "images/1359316132_fotoprofil.jpg", "restaurant": 7}, "model": "visitor.gallery", "pk": 7}, {"fields": {"picture": "images/1364255961_necsProfl.jpg", "restaurant": 8}, "model": "visitor.gallery", "pk": 8}, {"fields": {"picture": "images/1430375823_logo-la-tavola-calda-brasov.jpg", "restaurant": 9}, "model": "visitor.gallery", "pk": 9}, {"fields": {"picture": "images/1426360830_logo_restaurant_9grill_brasov-INCHIS.jpg", "restaurant": 10}, "model": "visitor.gallery", "pk": 10}, {"fields": {"picture": "images/1383079736_logo.jpg", "restaurant": 11}, "model": "visitor.gallery", "pk": 11}, {"fields": {"picture": "images/1420496124_logo_Restaurant_Rotmans_Brasov.jpg", "restaurant": 12}, "model": "visitor.gallery", "pk": 12}, {"fields": {"picture": "images/1360106258_fotoprofil.jpg", "restaurant": 13}, "model": "visitor.gallery", "pk": 13}, {"fields": {"picture": "images/1359316459_fotoprofil.jpg", "restaurant": 14}, "model": "visitor.gallery", "pk": 14}, {"fields": {"picture": "images/1366922928_profilStejarii.jpg", "restaurant": 15}, "model": "visitor.gallery", "pk": 15}, {"fields": {"picture": "images/1363041986_imgProfil.jpg", "restaurant": 16}, "model": "visitor.gallery", "pk": 16}, {"fields": {"picture": "images/1426360972_logoMaideiyInchis.jpg", "restaurant": 17}, "model": "visitor.gallery", "pk": 17}, {"fields": {"picture": "images/1434646046_logo-restaurant-padisah-brasov.png", "restaurant": 18}, "model": "visitor.gallery", "pk": 18}, {"fields": {"picture": "images/1364253334_sergianaProfil.jpg", "restaurant": 19}, "model": "visitor.gallery", "pk": 19}, {"fields": {"picture": "images/1420496096_logo_bier_haus_brasov.jpg", "restaurant": 20}, "model": "visitor.gallery", "pk": 20}, {"fields": {"picture": "images/1373405012_pizza.jpg", "restaurant": 21}, "model": "visitor.gallery", "pk": 21}, {"fields": {"picture": "images/1420496957_logo.jpg", "restaurant": 22}, "model": "visitor.gallery", "pk": 22}, {"fields": {"picture": "images/1434696924_logo-convives-pub-brasov.jpg", "restaurant": 23}, "model": "visitor.gallery", "pk": 23}, {"fields": {"picture": "images/1361826515_bucatari_ambient.jpg", "restaurant": 24}, "model": "visitor.gallery", "pk": 24}, {"fields": {"picture": "images/1359316768_fotoprofil.jpg", "restaurant": 25}, "model": "visitor.gallery", "pk": 25}, {"fields": {"picture": "images/1368140349_logo.jpg", "restaurant": 26}, "model": "visitor.gallery", "pk": 26}, {"fields": {"picture": "images/1359056375_fotoprofil.jpg", "restaurant": 27}, "model": "visitor.gallery", "pk": 27}, {"fields": {"picture": "images/1427226862_logo-restaurant-am-rosenanger-brasov.jpg", "restaurant": 28}, "model": "visitor.gallery", "pk": 28}, {"fields": {"picture": "images/1420496289_fotoprofil.jpg", "restaurant": 29}, "model": "visitor.gallery", "pk": 29}, {"fields": {"picture": "images/1363730426_ceasuRauProfil.jpg", "restaurant": 30}, "model": "visitor.gallery", "pk": 30}, {"fields": {"picture": "images/1361380930_profil.jpg", "restaurant": 31}, "model": "visitor.gallery", "pk": 31}, {"fields": {"picture": "images/1420496871_imgProfilApollonia.gif", "restaurant": 32}, "model": "visitor.gallery", "pk": 32}, {"fields": {"picture": "images/1358680783_1page-img5.jpg", "restaurant": 33}, "model": "visitor.gallery", "pk": 33}, {"fields": {"picture": "images/1434435076_logo-pe-colt.jpg", "restaurant": 34}, "model": "visitor.gallery", "pk": 34}, {"fields": {"picture": "images/1360491715_fotoprofil.jpg", "restaurant": 35}, "model": "visitor.gallery", "pk": 35}, {"fields": {"picture": "images/1425891905_logo-Grand-Restaurant.png", "restaurant": 36}, "model": "visitor.gallery", "pk": 36}, {"fields": {"picture": "images/1371312817_logoRestaurantVesuvius.png", "restaurant": 37}, "model": "visitor.gallery", "pk": 37}, {"fields": {"picture": "images/1420496829_logo_restaurant_anturaj_brasov.png", "restaurant": 38}, "model": "visitor.gallery", "pk": 38}, {"fields": {"picture": "images/1359315333_fotoprofil.jpg", "restaurant": 39}, "model": "visitor.gallery", "pk": 39}, {"fields": {"picture": "images/1378543656_logo2.jpg", "restaurant": 40}, "model": "visitor.gallery", "pk": 40}, {"fields": {"picture": "static/images/1397688303_bistro_albert_brasov_banner_OsGf6EP.jpg", "restaurant": 41}, "model": "visitor.gallery", "pk": 41}, {"fields": {"picture": "static/images/food_acDOPEO.jpg", "restaurant": 42}, "model": "visitor.gallery", "pk": 93}, {"fields": {"picture": "static/images/food_OIBk4HV.jpg", "restaurant": 42}, "model": "visitor.gallery", "pk": 101}, {"fields": {"name": "Can add log entry", "content_type": 1, "codename": "add_logentry"}, "model": "auth.permission", "pk": 1}, {"fields": {"name": "Can change log entry", "content_type": 1, "codename": "change_logentry"}, "model": "auth.permission", "pk": 2}, {"fields": {"name": "Can delete log entry", "content_type": 1, "codename": "delete_logentry"}, "model": "auth.permission", "pk": 3}, {"fields": {"name": "Can add permission", "content_type": 2, "codename": "add_permission"}, "model": "auth.permission", "pk": 4}, {"fields": {"name": "Can change permission", "content_type": 2, "codename": "change_permission"}, "model": "auth.permission", "pk": 5}, {"fields": {"name": "Can delete permission", "content_type": 2, "codename": "delete_permission"}, "model": "auth.permission", "pk": 6}, {"fields": {"name": "Can add group", "content_type": 3, "codename": "add_group"}, "model": "auth.permission", "pk": 7}, {"fields": {"name": "Can change group", "content_type": 3, "codename": "change_group"}, "model": "auth.permission", "pk": 8}, {"fields": {"name": "Can delete group", "content_type": 3, "codename": "delete_group"}, "model": "auth.permission", "pk": 9}, {"fields": {"name": "Can add user", "content_type": 4, "codename": "add_user"}, "model": "auth.permission", "pk": 10}, {"fields": {"name": "Can change user", "content_type": 4, "codename": "change_user"}, "model": "auth.permission", "pk": 11}, {"fields": {"name": "Can delete user", "content_type": 4, "codename": "delete_user"}, "model": "auth.permission", "pk": 12}, {"fields": {"name": "Can add content type", "content_type": 5, "codename": "add_contenttype"}, "model": "auth.permission", "pk": 13}, {"fields": {"name": "Can change content type", "content_type": 5, "codename": "change_contenttype"}, "model": "auth.permission", "pk": 14}, {"fields": {"name": "Can delete content type", "content_type": 5, "codename": "delete_contenttype"}, "model": "auth.permission", "pk": 15}, {"fields": {"name": "Can add session", "content_type": 6, "codename": "add_session"}, "model": "auth.permission", "pk": 16}, {"fields": {"name": "Can change session", "content_type": 6, "codename": "change_session"}, "model": "auth.permission", "pk": 17}, {"fields": {"name": "Can delete session", "content_type": 6, "codename": "delete_session"}, "model": "auth.permission", "pk": 18}, {"fields": {"name": "Can add user", "content_type": 7, "codename": "add_owner"}, "model": "auth.permission", "pk": 19}, {"fields": {"name": "Can change user", "content_type": 7, "codename": "change_owner"}, "model": "auth.permission", "pk": 20}, {"fields": {"name": "Can delete user", "content_type": 7, "codename": "delete_owner"}, "model": "auth.permission", "pk": 21}, {"fields": {"name": "Can add restaurant", "content_type": 8, "codename": "add_restaurant"}, "model": "auth.permission", "pk": 22}, {"fields": {"name": "Can change restaurant", "content_type": 8, "codename": "change_restaurant"}, "model": "auth.permission", "pk": 23}, {"fields": {"name": "Can delete restaurant", "content_type": 8, "codename": "delete_restaurant"}, "model": "auth.permission", "pk": 24}, {"fields": {"name": "Can add address", "content_type": 9, "codename": "add_address"}, "model": "auth.permission", "pk": 25}, {"fields": {"name": "Can change address", "content_type": 9, "codename": "change_address"}, "model": "auth.permission", "pk": 26}, {"fields": {"name": "Can delete address", "content_type": 9, "codename": "delete_address"}, "model": "auth.permission", "pk": 27}, {"fields": {"name": "Can add contact", "content_type": 10, "codename": "add_contact"}, "model": "auth.permission", "pk": 28}, {"fields": {"name": "Can change contact", "content_type": 10, "codename": "change_contact"}, "model": "auth.permission", "pk": 29}, {"fields": {"name": "Can delete contact", "content_type": 10, "codename": "delete_contact"}, "model": "auth.permission", "pk": 30}, {"fields": {"name": "Can add menu", "content_type": 11, "codename": "add_menu"}, "model": "auth.permission", "pk": 31}, {"fields": {"name": "Can change menu", "content_type": 11, "codename": "change_menu"}, "model": "auth.permission", "pk": 32}, {"fields": {"name": "Can delete menu", "content_type": 11, "codename": "delete_menu"}, "model": "auth.permission", "pk": 33}, {"fields": {"name": "Can add gallery", "content_type": 12, "codename": "add_gallery"}, "model": "auth.permission", "pk": 34}, {"fields": {"name": "Can change gallery", "content_type": 12, "codename": "change_gallery"}, "model": "auth.permission", "pk": 35}, {"fields": {"name": "Can delete gallery", "content_type": 12, "codename": "delete_gallery"}, "model": "auth.permission", "pk": 36}, {"fields": {"email": "", "user_permissions": [], "is_superuser": false, "is_active": true, "last_login": "2015-07-24T08:56:04.745Z", "is_staff": false, "groups": [], "password": "pbkdf2_sha256$20000$7oD5WYLU3dcJ$EWS8Wp6b0DKvcj1n9P2mC16qgPkNIntWdFZitNx7kCw=", "username": "gigiucu", "last_name": "", "first_name": "", "date_joined": "2015-07-14T08:57:00.388Z"}, "model": "auth.user", "pk": 1}, {"fields": {"email": "arno9422@gmail.com", "user_permissions": [], "is_superuser": true, "is_active": true, "last_login": "2015-07-22T10:35:35.589Z", "is_staff": true, "groups": [], "password": "pbkdf2_sha256$20000$jSwK6u04y8z0$d+1LbC+grpj/9OqOE8nHGiWlU+LRHSOFEYBCFZ03aXg=", "username": "admin", "last_name": "", "first_name": "", "date_joined": "2015-07-15T09:37:06.491Z"}, "model": "auth.user", "pk": 2}, {"fields": {"groups": [], "phone": "", "user_permissions": []}, "model": "visitor.owner", "pk": 1}, {"fields": {"name": "Restaurant Funpark", "city": "Brasov", "user": null}, "model": "visitor.restaurant", "pk": 1}, {"fields": {"name": "Casa Ungureasca", "city": "Brasov", "user": null}, "model": "visitor.restaurant", "pk": 2}, {"fields": {"name": "Restaurant Pilvax", "city": "Brasov", "user": null}, "model": "visitor.restaurant", "pk": 3}, {"fields": {"name": "Restaurant Vino e Sapori", "city": "Brasov", "user": null}, "model": "visitor.restaurant", "pk": 4}, {"fields": {"name": "Restaurant Paradis", "city": "Brasov", "user": null}, "model": "visitor.restaurant", "pk": 5}, {"fields": {"name": "Restaurant Prato", "city": "Brasov", "user": null}, "model": "visitor.restaurant", "pk": 6}, {"fields": {"name": "Bistro de l'Arte", "city": "Brasov", "user": null}, "model": "visitor.restaurant", "pk": 7}, {"fields": {"name": "Restaurant Terasa Nec's", "city": "Brasov", "user": null}, "model": "visitor.restaurant", "pk": 8}, {"fields": {"name": "Trattoria La Tavola Calda", "city": "Brasov", "user": null}, "model": "visitor.restaurant", "pk": 9}, {"fields": {"name": "Restaurant 9Grill", "city": "Brasov", "user": null}, "model": "visitor.restaurant", "pk": 10}, {"fields": {"name": "Restaurant Bonanzza", "city": "Brasov", "user": null}, "model": "visitor.restaurant", "pk": 11}, {"fields": {"name": "Restaurant Rotmans", "city": "Brasov", "user": null}, "model": "visitor.restaurant", "pk": 12}, {"fields": {"name": "Restaurant Sushi Ya", "city": "Brasov", "user": null}, "model": "visitor.restaurant", "pk": 13}, {"fields": {"name": "Pizza Roma", "city": "Brasov", "user": null}, "model": "visitor.restaurant", "pk": 14}, {"fields": {"name": "Complex Turistic Stejarii", "city": "Brasov", "user": null}, "model": "visitor.restaurant", "pk": 15}, {"fields": {"name": "Restaurant Golden Time", "city": "Brasov", "user": null}, "model": "visitor.restaurant", "pk": 16}, {"fields": {"name": "Maideyi Restaurant & Pub", "city": "Brasov", "user": null}, "model": "visitor.restaurant", "pk": 17}, {"fields": {"name": "Restaurant Padisah", "city": "Brasov", "user": null}, "model": "visitor.restaurant", "pk": 18}, {"fields": {"name": "Restaurant Sergiana", "city": "Brasov", "user": null}, "model": "visitor.restaurant", "pk": 19}, {"fields": {"name": "Bier Haus Pub & Restaurant", "city": "Brasov", "user": null}, "model": "visitor.restaurant", "pk": 20}, {"fields": {"name": "Restaurant Prato Business Park", "city": "Brasov", "user": null}, "model": "visitor.restaurant", "pk": 21}, {"fields": {"name": "Restaurant Taj Mahal", "city": "Brasov", "user": null}, "model": "visitor.restaurant", "pk": 22}, {"fields": {"name": "Convives Pub", "city": "Brasov", "user": null}, "model": "visitor.restaurant", "pk": 23}, {"fields": {"name": "Restaurant Ambient", "city": "Brasov", "user": null}, "model": "visitor.restaurant", "pk": 24}, {"fields": {"name": "Restaurant Belvedere", "city": "Brasov", "user": null}, "model": "visitor.restaurant", "pk": 25}, {"fields": {"name": "Beraria Ciucas", "city": "Brasov", "user": null}, "model": "visitor.restaurant", "pk": 26}, {"fields": {"name": "Restaurant Casa Cranta", "city": "Brasov", "user": null}, "model": "visitor.restaurant", "pk": 27}, {"fields": {"name": "Restaurant Am Rosenanger", "city": "Brasov", "user": null}, "model": "visitor.restaurant", "pk": 28}, {"fields": {"name": "Restaurant Coral Hotel Ramada", "city": "Brasov", "user": null}, "model": "visitor.restaurant", "pk": 29}, {"fields": {"name": "Restaurant Terasa Ceasu' Rau", "city": "Brasov", "user": null}, "model": "visitor.restaurant", "pk": 30}, {"fields": {"name": "Restaurant Era Ora", "city": "Brasov", "user": null}, "model": "visitor.restaurant", "pk": 31}, {"fields": {"name": "Restaurant Hotel Apollonia", "city": "Brasov", "user": null}, "model": "visitor.restaurant", "pk": 32}, {"fields": {"name": "Restaurant Old Center Bistro", "city": "Brasov", "user": null}, "model": "visitor.restaurant", "pk": 33}, {"fields": {"name": "Restaurant si Pizzerie Pe Colt", "city": "Brasov", "user": null}, "model": "visitor.restaurant", "pk": 34}, {"fields": {"name": "Restaurant Pantex", "city": "Brasov", "user": null}, "model": "visitor.restaurant", "pk": 35}, {"fields": {"name": "Grand Restaurant", "city": "Brasov", "user": null}, "model": "visitor.restaurant", "pk": 36}, {"fields": {"name": "Restaurant Vesuvius", "city": "Brasov", "user": null}, "model": "visitor.restaurant", "pk": 37}, {"fields": {"name": "Restaurant Anturaj", "city": "Brasov", "user": null}, "model": "visitor.restaurant", "pk": 38}, {"fields": {"name": "Restaurant Casa Romaneasca", "city": "Brasov", "user": null}, "model": "visitor.restaurant", "pk": 39}, {"fields": {"name": "Restaurant Ambasador", "city": "Brasov", "user": null}, "model": "visitor.restaurant", "pk": 40}, {"fields": {"name": "Bistro Albert", "city": "Brasov", "user": 1}, "model": "visitor.restaurant", "pk": 41}, {"fields": {"name": "Resto Sibiu", "city": "Fagaras", "user": 2}, "model": "visitor.restaurant", "pk": 42}, {"fields": {"name": "Salam Sibiu", "city": "Sibiu", "user": null}, "model": "visitor.restaurant", "pk": 43}, {"fields": {"name": "Resto Sibiu", "city": "Sibiu", "user": null}, "model": "visitor.restaurant", "pk": 44}, {"fields": {"name": "Resto Sibiu", "city": "Sibiu", "user": null}, "model": "visitor.restaurant", "pk": 45}, {"fields": {"name": "Resto Sibius", "city": "Sibiu", "user": null}, "model": "visitor.restaurant", "pk": 46}, {"fields": {"change_message": "", "object_id": "1", "action_time": "2015-07-16T10:24:39.377Z", "content_type": 11, "object_repr": "Menu object", "user": 2, "action_flag": 1}, "model": "admin.logentry", "pk": 1}, {"fields": {"change_message": "", "object_id": "2", "action_time": "2015-07-16T10:26:51.956Z", "content_type": 11, "object_repr": "Menu object", "user": 2, "action_flag": 1}, "model": "admin.logentry", "pk": 2}, {"fields": {"change_message": "Changed date.", "object_id": "2", "action_time": "2015-07-16T10:53:33.597Z", "content_type": 11, "object_repr": "Rabdari prajite", "user": 2, "action_flag": 2}, "model": "admin.logentry", "pk": 3}, {"fields": {"change_message": "", "object_id": "42", "action_time": "2015-07-16T10:56:41.322Z", "content_type": 8, "object_repr": "Resto Sibiu", "user": 2, "action_flag": 1}, "model": "admin.logentry", "pk": 4}, {"fields": {"change_message": "", "object_id": "3", "action_time": "2015-07-16T10:57:20.018Z", "content_type": 11, "object_repr": "Salam Sibiu", "user": 2, "action_flag": 1}, "model": "admin.logentry", "pk": 5}, {"fields": {"change_message": "", "object_id": "5", "action_time": "2015-07-16T12:49:08.996Z", "content_type": 11, "object_repr": "Salata", "user": 2, "action_flag": 1}, "model": "admin.logentry", "pk": 6}, {"fields": {"change_message": "", "object_id": "6", "action_time": "2015-07-16T12:50:00.786Z", "content_type": 11, "object_repr": "Sarmale", "user": 2, "action_flag": 1}, "model": "admin.logentry", "pk": 7}, {"fields": {"change_message": "Changed picture.", "object_id": "5", "action_time": "2015-07-16T13:27:01.348Z", "content_type": 11, "object_repr": "Salata", "user": 2, "action_flag": 2}, "model": "admin.logentry", "pk": 8}, {"fields": {"change_message": "Changed user.", "object_id": "41", "action_time": "2015-07-17T08:36:11.209Z", "content_type": 8, "object_repr": "Bistro Albert", "user": 2, "action_flag": 2}, "model": "admin.logentry", "pk": 9}, {"fields": {"change_message": "", "object_id": "7", "action_time": "2015-07-20T08:18:54.821Z", "content_type": 11, "object_repr": "Cartofi Prajiti", "user": 2, "action_flag": 1}, "model": "admin.logentry", "pk": 10}, {"fields": {"change_message": "Changed picture.", "object_id": "2", "action_time": "2015-07-20T10:15:13.461Z", "content_type": 11, "object_repr": "Rabdari prajite", "user": 2, "action_flag": 2}, "model": "admin.logentry", "pk": 11}, {"fields": {"change_message": "Changed picture.", "object_id": "2", "action_time": "2015-07-20T10:16:52.478Z", "content_type": 11, "object_repr": "Rabdari prajite", "user": 2, "action_flag": 2}, "model": "admin.logentry", "pk": 12}, {"fields": {"change_message": "Changed picture.", "object_id": "2", "action_time": "2015-07-20T10:19:57.752Z", "content_type": 11, "object_repr": "Rabdari prajite", "user": 2, "action_flag": 2}, "model": "admin.logentry", "pk": 13}, {"fields": {"change_message": "", "object_id": "42", "action_time": "2015-07-21T07:57:50.968Z", "content_type": 12, "object_repr": "Bistro Albert", "user": 2, "action_flag": 1}, "model": "admin.logentry", "pk": 14}, {"fields": {"change_message": "Changed picture.", "object_id": "41", "action_time": "2015-07-21T08:01:32.410Z", "content_type": 12, "object_repr": "Bistro Albert", "user": 2, "action_flag": 2}, "model": "admin.logentry", "pk": 15}, {"fields": {"change_message": "", "object_id": "47", "action_time": "2015-07-22T10:37:38.909Z", "content_type": 8, "object_repr": "Resto Sibius", "user": 2, "action_flag": 3}, "model": "admin.logentry", "pk": 16}]